[{"seq":12,"name":"마뫼","address":"서울 중구 회현동1가 산 1-20","road_address":"서울 중구 소파로 41","category":"카페","lat":37.55516576113125,"lng":126.9813491007099,"rating_avg":5.0,"phone":"02-776-2008","place_url":"http://place.map.kakao.com/1773363624","place_id":1773363624,"partyOn":0,"top":1},{"seq":16,"name":"서울웨스틴조선호텔 아리아","address":"서울 중구 소공동 87-1","road_address":"서울 중구 소공로 106","category":"음식점","lat":37.56443681437021,"lng":126.9800904144209,"rating_avg":3.0,"phone":"02-317-0357","place_url":"http://place.map.kakao.com/21306149","place_id":21306149,"partyOn":0},{"seq":17,"name":"루프트 명동점","address":"서울 중구 충무로2가 50-10","road_address":"서울 중구 삼일대로 308","category":"카페","lat":37.56210983071858,"lng":126.98927021026016,"rating_avg":0.0,"phone":"02-2277-0872","place_url":"http://place.map.kakao.com/1062422741","place_id":1062422741,"partyOn":0},{"seq":18,"name":"스타벅스 동국대점","address":"서울 중구 충무로5가 90","road_address":"서울 중구 서애로1길 11","category":"카페","lat":37.5615913349198,"lng":126.998519570913,"rating_avg":0.0,"place_url":"http://place.map.kakao.com/1649896571","place_id":1649896571,"partyOn":0},{"seq":19,"name":"정원레스토랑 어반가든","address":"서울 중구 정동 28-2","road_address":"서울 중구 정동길 12-15","category":"음식점","lat":37.5674329910375,"lng":126.969202859743,"rating_avg":0.0,"phone":"02-777-2254","place_url":"http://place.map.kakao.com/15982071","place_id":15982071,"partyOn":0},{"seq":45,"name":"맥도날드 안국역","address":"서울 종로구 안국동 164-6","road_address":"서울 종로구 율곡로 45","category":"음식점","lat":37.57623329629384,"lng":126.98441962210012,"rating_avg":2.0,"phone":"070-7209-0603","place_url":"http://place.map.kakao.com/26575995","place_id":26575995,"partyOn":0},{"seq":46,"name":"스타벅스 주얼리시티점","address":"서울 종로구 인의동 48-2","road_address":"서울 종로구 종로 183","category":"카페","lat":37.5715779684766,"lng":126.998134500867,"rating_avg":0.0,"phone":"1522-3232","place_url":"http://place.map.kakao.com/7962128","place_id":7962128,"partyOn":0},{"seq":75,"name":"돌집","address":"전남 목포시 복만동 2-29","road_address":"전남 목포시 번화로 67","category":"음식점","lat":34.7877771480893,"lng":126.38593822668449,"rating_avg":0.0,"phone":"061-243-3586","place_url":"http://place.map.kakao.com/21489204","place_id":21489204,"partyOn":0},{"seq":86,"name":"빽다방 문래동국점","address":"서울 영등포구 문래동3가 84-2","road_address":"서울 영등포구 선유로 76","category":"카페","lat":37.52053546139296,"lng":126.88983185799805,"rating_avg":0.0,"phone":"02-2679-9100","place_url":"http://place.map.kakao.com/27095192","place_id":27095192,"partyOn":0},{"seq":87,"name":"북한횟집","address":"강원 속초시 대포동 421-17","road_address":"강원 속초시 대포항길 31","category":"음식점","lat":38.174877299274,"lng":128.605578954351,"rating_avg":0.0,"phone":"033-636-2037","place_url":"http://place.map.kakao.com/8347288","place_id":8347288,"partyOn":0},{"seq":88,"name":"136길 육미","address":"서울 강남구 논현동 107-34","road_address":"서울 강남구 언주로136길 9","category":"음식점","lat":37.5173646606217,"lng":127.036368998147,"rating_avg":0.0,"phone":"02-542-8899","place_url":"http://place.map.kakao.com/27440495","place_id":27440495,"partyOn":0},{"seq":89,"name":"A뷔페","address":"전북 군산시 수송동 22-24","road_address":"전북 군산시 공단대로 183","category":"음식점","lat":35.9590065072481,"lng":126.721207432334,"rating_avg":0.0,"phone":"063-464-5566","place_url":"http://place.map.kakao.com/21762753","place_id":21762753,"partyOn":0},{"seq":103,"name":"ㅊa","address":"경기 성남시 분당구 서현동 247-4","road_address":"경기 성남시 분당구 황새울로360번길 28","category":"카페","lat":37.3856383710853,"lng":127.124827032723,"rating_avg":5.0,"place_url":"http://place.map.kakao.com/1472275959","place_id":1472275959,"partyOn":0,"top":1},{"seq":113,"name":"A","address":"경남 창원시 성산구 반지동 78","road_address":"경남 창원시 성산구 원이대로393번길 25","category":"카페","lat":35.239940219296,"lng":128.662546285261,"rating_avg":0.0,"place_url":"http://place.map.kakao.com/13305704","place_id":13305704,"partyOn":0},{"seq":127,"name":"라라브레드 안국점","address":"서울 종로구 수송동 12","road_address":"서울 종로구 율곡로 24","category":"카페","lat":37.575384217139,"lng":126.982011960069,"rating_avg":0.0,"place_url":"http://place.map.kakao.com/1749320734","place_id":1749320734,"partyOn":1},{"seq":26,"name":"대림창고","address":"서울 성동구 성수동2가 322-32","road_address":"서울 성동구 성수이로 78","category":"카페","lat":37.5417271540066,"lng":127.056250426625,"rating_avg":0.0,"phone":"02-498-7474","place_url":"http://place.map.kakao.com/1128989913","place_id":1128989913,"partyOn":0},{"seq":27,"name":"제일곱창","address":"서울 성동구 홍익동 131-1","road_address":"서울 성동구 고산자로 281","category":"음식점","lat":37.56487445653977,"lng":127.03611816855269,"rating_avg":0.0,"place_url":"http://place.map.kakao.com/1784439722","place_id":1784439722,"partyOn":0},{"seq":28,"name":"라칸티나","address":"서울 중구 을지로1가 50","road_address":"서울 중구 을지로 19","category":"음식점","lat":37.56621445453592,"lng":126.97994166288005,"rating_avg":4.5,"phone":"02-777-2580","place_url":"http://place.map.kakao.com/10372376","place_id":10372376,"partyOn":0},{"seq":29,"name":"아웃백스테이크하우스 서대문점","address":"서울 중구 의주로1가 25-10","road_address":"서울 중구 통일로 114","category":"음식점","lat":37.5651765167927,"lng":126.967777619003,"rating_avg":0.0,"phone":"02-6325-2501","place_url":"http://place.map.kakao.com/10592826","place_id":10592826,"partyOn":0},{"seq":39,"name":"지구당","address":"서울 관악구 봉천동 1598-23","road_address":"서울 관악구 관악로12길 5","category":"음식점","lat":37.4782535339868,"lng":126.952764852685,"rating_avg":0.0,"phone":"02-598-8869","place_url":"http://place.map.kakao.com/11495399","place_id":11495399,"partyOn":0},{"seq":40,"name":"카페쎄라비","address":"서울 용산구 청파동2가 64-9","road_address":"서울 용산구 청파로47길 75","category":"카페","lat":37.5448856088011,"lng":126.966202151066,"rating_avg":0.0,"phone":"02-3272-6707","place_url":"http://place.map.kakao.com/11591116","place_id":11591116,"partyOn":0},{"seq":41,"name":"스타벅스 리버사이드팔당DTR점","address":"경기 남양주시 와부읍 도곡리 504-15","road_address":"경기 남양주시 와부읍 경강로 772","category":"카페","lat":37.56711341785411,"lng":127.22837062241311,"rating_avg":0.0,"phone":"1522-3232","place_url":"http://place.map.kakao.com/2131363102","place_id":2131363102,"partyOn":1},{"seq":42,"name":"팔레드신","address":"서울 중구 회현동1가 210","road_address":"서울 중구 퇴계로 67","category":"음식점","lat":37.559740726192615,"lng":126.97954160997703,"rating_avg":5.0,"phone":"02-317-4001","place_url":"http://place.map.kakao.com/1024056719","place_id":1024056719,"partyOn":0,"top":1},{"seq":43,"name":"사랑방칼국수","address":"서울 중구 충무로3가 23-1","road_address":"서울 중구 퇴계로27길 46","category":"음식점","lat":37.563266879496595,"lng":126.99133001470943,"rating_avg":0.0,"phone":"02-2272-2020","place_url":"http://place.map.kakao.com/7919722","place_id":7919722,"partyOn":0},{"seq":44,"name":"스타벅스 명동센트럴점","address":"서울 중구 명동1가 10-1","road_address":"서울 중구 명동9길 16","category":"카페","lat":37.5646466010783,"lng":126.985235852009,"rating_avg":1.0,"phone":"1522-3232","place_url":"http://place.map.kakao.com/2066600910","place_id":2066600910,"partyOn":0},{"seq":48,"name":"아그라","address":"경남 진주시 평거동 916","road_address":"경남 진주시 남강로309번길 52","category":"음식점","lat":35.1716356162317,"lng":128.06012691084,"rating_avg":0.0,"phone":"055-747-5005","place_url":"http://place.map.kakao.com/27303953","place_id":27303953,"partyOn":0},{"seq":49,"name":"커피빈 마곡마커스빌딩점","address":"서울 강서구 마곡동 774-12","road_address":"서울 강서구 마곡동로 55","category":"카페","lat":37.5598479879946,"lng":126.833104811508,"rating_avg":0.0,"phone":"02-6905-3030","place_url":"http://place.map.kakao.com/1626426009","place_id":1626426009,"partyOn":0},{"seq":50,"name":"이재모피자","address":"부산 중구 신창동1가 2-1","road_address":"부산 중구 광복중앙로 31","category":"음식점","lat":35.10204386056129,"lng":129.03075271594966,"rating_avg":0.0,"phone":"051-245-1478","place_url":"http://place.map.kakao.com/10070964","place_id":10070964,"partyOn":0},{"seq":77,"name":"오미식당","address":"서울 중구 을지로1가 87","road_address":"서울 중구 을지로 29","category":"음식점","lat":37.5664912422636,"lng":126.98104292798,"rating_avg":4.25,"place_url":"http://place.map.kakao.com/1294062700","place_id":1294062700,"partyOn":0},{"seq":85,"name":"빽다방 신논현역점","address":"서울 서초구 반포동 747-13","road_address":"서울 서초구 사평대로 367","category":"카페","lat":37.504368304702986,"lng":127.02312138903574,"rating_avg":0.0,"phone":"02-548-0410","place_url":"http://place.map.kakao.com/650354570","place_id":650354570,"partyOn":0},{"seq":104,"name":"우에스토","address":"서울 중구 을지로2가 199-33","road_address":"서울 중구 명동9가길 14","category":"음식점","lat":37.5651365454515,"lng":126.983732618485,"rating_avg":2.0,"phone":"02-319-0033","place_url":"http://place.map.kakao.com/21535061","place_id":21535061,"partyOn":0},{"seq":118,"name":"산수갑산","address":"서울 중구 인현동1가 15-4","road_address":"서울 중구 을지로20길 24","category":"음식점","lat":37.5653790406748,"lng":126.99532758358,"rating_avg":0.0,"phone":"02-2275-6654","place_url":"http://place.map.kakao.com/27072121","place_id":27072121,"partyOn":0},{"seq":115,"name":"스타벅스 경주대릉원점","address":"경북 경주시 황남동 140-2","road_address":"경북 경주시 첨성로 125","category":"카페","lat":35.8340500195735,"lng":129.214987136254,"rating_avg":0.0,"place_url":"http://place.map.kakao.com/24994872","place_id":24994872,"partyOn":0},{"seq":32,"name":"이춘복참치 종각직영점","address":"서울 종로구 관철동 15-1","road_address":"서울 종로구 종로14길 4","category":"음식점","lat":37.56979868068116,"lng":126.98680145485497,"rating_avg":0.0,"phone":"02-723-4558","place_url":"http://place.map.kakao.com/14505954","place_id":14505954,"partyOn":0},{"seq":33,"name":"스타벅스 을지로4가역점","address":"서울 중구 을지로4가 323","road_address":"서울 중구 을지로 170","category":"카페","lat":37.5661395435934,"lng":126.997328727022,"rating_avg":4.0,"phone":"1522-3232","place_url":"http://place.map.kakao.com/2059657767","place_id":2059657767,"partyOn":0},{"seq":34,"name":"한솥도시락 르네상스호텔사거리점","address":"서울 강남구 역삼동 720-25","road_address":"서울 강남구 언주로 427","category":"음식점","lat":37.50149578339365,"lng":127.04288443883809,"rating_avg":0.0,"phone":"02-501-1144","place_url":"http://place.map.kakao.com/11634481","place_id":11634481,"partyOn":0},{"seq":35,"name":"유가네닭갈비 명동1호점","address":"서울 중구 명동2가 3-7","road_address":"서울 중구 명동10길 13","category":"음식점","lat":37.5632735024062,"lng":126.98539458226,"rating_avg":4.5,"phone":"02-3789-3392","place_url":"http://place.map.kakao.com/15411094","place_id":15411094,"partyOn":0},{"seq":36,"name":"버거킹 종로점","address":"서울 종로구 종로2가 56-23","road_address":"서울 종로구 종로 94","category":"음식점","lat":37.569969102713664,"lng":126.98805902486887,"rating_avg":3.0,"phone":"02-2285-4838","place_url":"http://place.map.kakao.com/20373593","place_id":20373593,"partyOn":0},{"seq":37,"name":"락희돈 신촌점","address":"서울 서대문구 대현동 104-50","road_address":"서울 서대문구 신촌로 141","category":"음식점","lat":37.55682412576075,"lng":126.94156752238473,"rating_avg":0.0,"phone":"02-393-9905","place_url":"http://place.map.kakao.com/771666825","place_id":771666825,"partyOn":0},{"seq":38,"name":"마루가메제면 강남점","address":"서울 강남구 역삼동 817","road_address":"서울 강남구 강남대로98길 8","category":"음식점","lat":37.5005291023279,"lng":127.027413117381,"rating_avg":0.0,"phone":"02-501-2467","place_url":"http://place.map.kakao.com/20180239","place_id":20180239,"partyOn":0},{"seq":51,"name":"스타벅스 서울극장점","address":"서울 종로구 관수동 59-7","road_address":"서울 종로구 돈화문로 13","category":"카페","lat":37.5698658098723,"lng":126.991836364224,"rating_avg":0.0,"place_url":"http://place.map.kakao.com/10538393","place_id":10538393,"partyOn":0},{"seq":52,"name":"유가네닭갈비 명동2호점","address":"서울 중구 명동2가 55-8","road_address":"서울 중구 명동4길 8","category":"음식점","lat":37.5632912717904,"lng":126.983493067053,"rating_avg":4.0,"phone":"02-3789-2492","place_url":"http://place.map.kakao.com/1607777093","place_id":1607777093,"partyOn":0},{"seq":53,"name":"피자헛 종로본점","address":"서울 종로구 관수동 146-6","road_address":"서울 종로구 수표로 84","category":"음식점","lat":37.56873912707097,"lng":126.98968807520193,"rating_avg":0.0,"phone":"02-2263-5950","place_url":"http://place.map.kakao.com/8127548","place_id":8127548,"partyOn":0},{"seq":54,"name":"도네누 대학로점","address":"서울 종로구 명륜2가 21-14","road_address":"서울 종로구 창경궁로 258-5","category":"음식점","lat":37.5840225146382,"lng":127.000439280422,"rating_avg":0.0,"phone":"02-766-9285","place_url":"http://place.map.kakao.com/13062297","place_id":13062297,"partyOn":0},{"seq":55,"name":"갓덴스시 종로점","address":"서울 종로구 관철동 19-1","road_address":"서울 종로구 종로12길 14","category":"음식점","lat":37.5694759846234,"lng":126.985606177023,"rating_avg":0.0,"phone":"02-730-1477","place_url":"http://place.map.kakao.com/15204021","place_id":15204021,"partyOn":0},{"seq":56,"name":"사마르칸트","address":"서울 중구 광희동1가 121","road_address":"서울 중구 마른내로 159-23","category":"음식점","lat":37.5652240180035,"lng":127.005826925843,"rating_avg":2.5,"phone":"02-2277-4163","place_url":"http://place.map.kakao.com/16989098","place_id":16989098,"partyOn":0},{"seq":57,"name":"돈차를리 스타필드하남점","address":"경기 하남시 신장동 616","road_address":"경기 하남시 미사대로 750","category":"음식점","lat":37.545466724366705,"lng":127.22522893631785,"rating_avg":0.0,"phone":"031-8072-8434","place_url":"http://place.map.kakao.com/29157583","place_id":29157583,"partyOn":0},{"seq":58,"name":"김밥일번가","address":"서울 중구 남대문로1가 22-8","road_address":"서울 중구 남대문로 112-1","category":"음식점","lat":37.5672375673035,"lng":126.98301679325,"rating_avg":3.0,"phone":"070-3630-2700","place_url":"http://place.map.kakao.com/1094076825","place_id":1094076825,"partyOn":0},{"seq":59,"name":"폴바셋 종각역점","address":"서울 종로구 공평동 100","road_address":"서울 종로구 종로 47","category":"카페","lat":37.5711153610686,"lng":126.982395479667,"rating_avg":5.0,"phone":"02-3446-8717","place_url":"http://place.map.kakao.com/1525426810","place_id":1525426810,"partyOn":0,"top":1},{"seq":60,"name":"파스쿠찌 청량리역사점","address":"서울 동대문구 전농동 588-1","road_address":"서울 동대문구 왕산로 214","category":"카페","lat":37.580700681477325,"lng":127.04805604719864,"rating_avg":0.0,"phone":"02-3707-1896","place_url":"http://place.map.kakao.com/26307427","place_id":26307427,"partyOn":0},{"seq":61,"name":"닭한마리","address":"서울 중구 을지로3가 257","road_address":"서울 중구 을지로18길 8","category":"음식점","lat":37.5661863081822,"lng":126.994734419636,"rating_avg":4.0,"phone":"02-269-8635","place_url":"http://place.map.kakao.com/13288856","place_id":13288856,"partyOn":0},{"seq":62,"name":"두끼떡볶이 종각역점","address":"서울 종로구 관철동 13-13","road_address":"서울 종로구 종로12길 15","category":"음식점","lat":37.5694327745178,"lng":126.985918602201,"rating_avg":0.0,"phone":"02-722-5292","place_url":"http://place.map.kakao.com/1971896058","place_id":1971896058,"partyOn":0},{"seq":63,"name":"서관면옥","address":"서울 서초구 서초동 1675-5","road_address":"서울 서초구 서초대로56길 11","category":"음식점","lat":37.49398611053418,"lng":127.01726061553379,"rating_avg":0.0,"phone":"02-521-9945","place_url":"http://place.map.kakao.com/34321780","place_id":34321780,"partyOn":0},{"seq":64,"name":"서초면옥 본점","address":"서울 서초구 방배동 797-19","road_address":"서울 서초구 동광로 97","category":"음식점","lat":37.4939439225313,"lng":126.993115659813,"rating_avg":0.0,"phone":"02-536-1423","place_url":"http://place.map.kakao.com/24726061","place_id":24726061,"partyOn":0},{"seq":65,"name":"락희돈","address":"서울 마포구 동교동 155-35","road_address":"서울 마포구 월드컵북로2길 86","category":"음식점","lat":37.5582769064901,"lng":126.924723294787,"rating_avg":0.0,"phone":"02-332-1233","place_url":"http://place.map.kakao.com/814587106","place_id":814587106,"partyOn":0},{"seq":66,"name":"명동교자 본점","address":"서울 중구 명동2가 25-36","road_address":"서울 중구 명동10길 29","category":"음식점","lat":37.562557237857966,"lng":126.98561995847126,"rating_avg":4.5,"phone":"02-776-5348","place_url":"http://place.map.kakao.com/10332413","place_id":10332413,"partyOn":0},{"seq":67,"name":"엔테라스","address":"서울 용산구 용산동2가 산 1-3","road_address":"서울 용산구 남산공원길 126","category":"카페","lat":37.550858300220874,"lng":126.99076109350275,"rating_avg":5.0,"place_url":"http://place.map.kakao.com/22762955","place_id":22762955,"partyOn":0,"top":1},{"seq":68,"name":"서울신라호텔 더파크뷰","address":"서울 중구 장충동2가 202","road_address":"서울 중구 동호로 249","category":"음식점","lat":37.5559077408633,"lng":127.005174317802,"rating_avg":0.0,"phone":"02-2230-3374","place_url":"http://place.map.kakao.com/7981207","place_id":7981207,"partyOn":0},{"seq":70,"name":"빈","address":"충남 예산군 예산읍 주교리 205-4","road_address":"충남 예산군 예산읍 주교로 51","category":"카페","lat":36.6859638665797,"lng":126.832260023847,"rating_avg":0.0,"phone":"041-335-6630","place_url":"http://place.map.kakao.com/26989650","place_id":26989650,"partyOn":0},{"seq":72,"name":"인천여관X루비살롱","address":"인천 중구 관동3가 4-37","road_address":"인천 중구 신포로31번길 20","category":"카페","lat":37.4723401275446,"lng":126.62467703837,"rating_avg":0.0,"phone":"070-7757-4712","place_url":"http://place.map.kakao.com/1118755213","place_id":1118755213,"partyOn":0},{"seq":73,"name":"카페마마스 센터원점","address":"서울 중구 수하동 67","road_address":"서울 중구 을지로5길 26","category":"카페","lat":37.567419858808925,"lng":126.98517191743558,"rating_avg":4.5,"phone":"02-6030-8979","place_url":"http://place.map.kakao.com/314537977","place_id":314537977,"partyOn":0},{"seq":76,"name":"원조만선호프 노가리체인본점","address":"서울 중구 을지로3가 95-1","road_address":"서울 중구 을지로13길 19","category":"음식점","lat":37.56724841379654,"lng":126.99178231809911,"rating_avg":0.0,"phone":"02-2274-1040(팩스)","place_url":"http://place.map.kakao.com/8332362","place_id":8332362,"partyOn":0},{"seq":79,"name":"맥도날드 강남2호점","address":"서울 강남구 역삼동 822-2","road_address":"서울 강남구 테헤란로 107","category":"음식점","lat":37.49864658673187,"lng":127.02873329209403,"rating_avg":0.0,"phone":"070-7017-6865","place_url":"http://place.map.kakao.com/22318989","place_id":22318989,"partyOn":0},{"seq":80,"name":"종로고기집 종로본점","address":"서울 종로구 관철동 13-10","road_address":"서울 종로구 삼일대로19길 19","category":"음식점","lat":37.5694796762806,"lng":126.986344205016,"rating_avg":0.0,"phone":"02-725-3244","place_url":"http://place.map.kakao.com/26794800","place_id":26794800,"partyOn":0},{"seq":82,"name":"몽탄","address":"서울 용산구 한강로1가 252-1","road_address":"서울 용산구 백범로99길 50","category":"음식점","lat":37.5359961162675,"lng":126.972243524719,"rating_avg":0.0,"phone":"02-794-8592","place_url":"http://place.map.kakao.com/220597413","place_id":220597413,"partyOn":0},{"seq":91,"name":"철계단집","address":"서울 동대문구 휘경동 183-433","road_address":"서울 동대문구 회기로31가길 35-1","category":"음식점","lat":37.590391488971,"lng":127.0567852268,"rating_avg":0.0,"place_url":"http://place.map.kakao.com/929476950","place_id":929476950,"partyOn":0},{"seq":92,"name":"북악정","address":"서울 종로구 평창동 114-12","road_address":"서울 종로구 평창36길 6","category":"음식점","lat":37.6113420731628,"lng":126.9777425369,"rating_avg":0.0,"phone":"02-394-2340","place_url":"http://place.map.kakao.com/17421008","place_id":17421008,"partyOn":0},{"seq":93,"name":"쉐이크쉑 종각점","address":"서울 종로구 청진동 70","road_address":"서울 종로구 종로 33","category":"음식점","lat":37.5708431266268,"lng":126.981519514875,"rating_avg":0.0,"phone":"02-2158-7575","place_url":"http://place.map.kakao.com/2038128499","place_id":2038128499,"partyOn":0},{"seq":96,"name":"D","address":"서울 마포구 서교동 361-8","road_address":"서울 마포구 와우산로18길 17","category":"음식점","lat":37.5510826987805,"lng":126.923721083602,"rating_avg":0.0,"place_url":"http://place.map.kakao.com/7986978","place_id":7986978,"partyOn":0},{"seq":97,"name":"평래옥","address":"서울 중구 저동2가 18-1","road_address":"서울 중구 마른내로 21-1","category":"음식점","lat":37.564910222013,"lng":126.99036546529,"rating_avg":0.0,"phone":"02-2267-5892","place_url":"http://place.map.kakao.com/12106466","place_id":12106466,"partyOn":0},{"seq":98,"name":"스시도쿠","address":"서울 성동구 행당동 196-18","road_address":"서울 성동구 왕십리광장로 8","category":"음식점","lat":37.5610163757522,"lng":127.036163842399,"rating_avg":0.0,"phone":"02-2281-3255","place_url":"http://place.map.kakao.com/26792732","place_id":26792732,"partyOn":0},{"seq":99,"name":"벙커1","address":"서울 서대문구 충정로3가 270","road_address":"서울 서대문구 충정로 20","category":"카페","lat":37.560756856782,"lng":126.963732156163,"rating_avg":0.0,"phone":"02-771-7707","place_url":"http://place.map.kakao.com/17434509","place_id":17434509,"partyOn":0},{"seq":4,"name":"충무집","address":"서울 중구 다동 123-1","road_address":"서울 중구 을지로3길 30-14","category":"음식점","lat":37.5673779751551,"lng":126.982020677003,"rating_avg":0.0,"phone":"02-776-4088","place_url":"http://place.map.kakao.com/781644913","place_id":781644913,"partyOn":0},{"seq":5,"name":"반쥴","address":"서울 종로구 관철동 12-16","road_address":"서울 종로구 삼일대로17길 23","category":"카페","lat":37.5690615964593,"lng":126.986190337567,"rating_avg":4.5,"phone":"02-735-5437","place_url":"http://place.map.kakao.com/10405822","place_id":10405822,"partyOn":0},{"seq":6,"name":"카페이마","address":"서울 종로구 세종로 139-8","road_address":"서울 종로구 세종대로 152","category":"카페","lat":37.5697306216335,"lng":126.977610035652,"rating_avg":4.0,"phone":"02-2020-2088","place_url":"http://place.map.kakao.com/8045991","place_id":8045991,"partyOn":0},{"seq":7,"name":"드도트","address":"서울 용산구 용산동2가 47-1","road_address":"서울 용산구 신흥로2길 78","category":"카페","lat":37.5432031779251,"lng":126.988127793394,"rating_avg":0.0,"phone":"02-794-2419","place_url":"http://place.map.kakao.com/211740999","place_id":211740999,"partyOn":0},{"seq":8,"name":"덕수궁 리에제와플","address":"서울 중구 태평로2가 365","road_address":"서울 중구 덕수궁길 5","category":"카페","lat":37.5647929393394,"lng":126.976452473606,"rating_avg":5.0,"place_url":"http://place.map.kakao.com/243733683","place_id":243733683,"partyOn":0},{"seq":74,"name":"황소고집","address":"서울 종로구 관철동 11-11","road_address":"서울 종로구 청계천로 75-1","category":"음식점","lat":37.568579548128426,"lng":126.98605685855935,"rating_avg":0.0,"phone":"02-722-5747","place_url":"http://place.map.kakao.com/8696442","place_id":8696442,"partyOn":0},{"seq":10,"name":"이나니와요스케 서울시청점","address":"서울 중구 을지로1가 192-11","road_address":"서울 중구 을지로 6","category":"음식점","lat":37.5653376347315,"lng":126.97907374358543,"rating_avg":0.0,"phone":"02-772-9994","place_url":"http://place.map.kakao.com/220828644","place_id":220828644,"partyOn":0},{"seq":11,"name":"커피한약방","address":"서울 중구 을지로2가 101-34","road_address":"서울 중구 삼일대로12길 16-6","category":"카페","lat":37.566564293688046,"lng":126.9886017493288,"rating_avg":0.0,"phone":"070-4148-4242","place_url":"http://place.map.kakao.com/1440347564","place_id":1440347564,"partyOn":0},{"seq":25,"name":"파스쿠찌 부산구포점","address":"부산 북구 구포동 885-2","road_address":"부산 북구 낙동북로 720","category":"카페","lat":35.198041329646635,"lng":129.00019900078289,"rating_avg":0.0,"phone":"051-338-1300","place_url":"http://place.map.kakao.com/27029917","place_id":27029917,"partyOn":0},{"seq":30,"name":"청계면관","address":"서울 종로구 관철동 246-2","road_address":"서울 종로구 청계천로 63","category":"음식점","lat":37.5688631784792,"lng":126.984583024321,"rating_avg":4.5,"phone":"02-779-0709","place_url":"http://place.map.kakao.com/26822073","place_id":26822073,"partyOn":0},{"seq":69,"name":"호랑이","address":"서울 중구 산림동 207-2","road_address":"서울 중구 을지로 157","category":"카페","lat":37.5674657521006,"lng":126.99544970010409,"rating_avg":0.0,"phone":"02-2269-5880","place_url":"http://place.map.kakao.com/1709558766","place_id":1709558766,"partyOn":1},{"seq":71,"name":"챔프커피 제3작업실","address":"서울 중구 산림동 207-2","road_address":"서울 중구 을지로 157","category":"카페","lat":37.5675198109739,"lng":126.995427058491,"rating_avg":0.0,"phone":"02-2269-4516","place_url":"http://place.map.kakao.com/1982412866","place_id":1982412866,"partyOn":0},{"seq":78,"name":"자연을담은밥상 백운재","address":"경기 의왕시 학의동 438-3","category":"음식점","lat":37.38511526515461,"lng":127.01208661975262,"rating_avg":0.0,"place_url":"http://place.map.kakao.com/1197944631","place_id":1197944631,"partyOn":0},{"seq":81,"name":"나정순할매쭈꾸미","address":"서울 동대문구 용두동 119-20","road_address":"서울 동대문구 무학로 144","category":"음식점","lat":37.5770808720155,"lng":127.030696963734,"rating_avg":0.0,"phone":"02-928-0231","place_url":"http://place.map.kakao.com/27175293","place_id":27175293,"partyOn":0},{"seq":83,"name":"바다식당","address":"서울 용산구 한남동 738-24","road_address":"서울 용산구 이태원로 245","category":"음식점","lat":37.53682919957035,"lng":127.00016971782372,"rating_avg":0.0,"phone":"02-795-1317","place_url":"http://place.map.kakao.com/7881602","place_id":7881602,"partyOn":0},{"seq":84,"name":"개미집1","address":"서울 광진구 화양동 495-16","road_address":"서울 광진구 광나루로24길 12","category":"음식점","lat":37.54577047641053,"lng":127.07617844997235,"rating_avg":0.0,"phone":"02-444-2167","place_url":"http://place.map.kakao.com/21324423","place_id":21324423,"partyOn":0},{"seq":90,"name":"스타벅스 제주함덕점","address":"제주특별자치도 제주시 조천읍 함덕리 1004-27","road_address":"제주특별자치도 제주시 조천읍 조함해안로 522","category":"카페","lat":33.5425116071922,"lng":126.668569177793,"rating_avg":0.0,"phone":"1522-3232","place_url":"http://place.map.kakao.com/454445122","place_id":454445122,"partyOn":0},{"seq":109,"name":"C.E.O","address":"경기 평택시 합정동 929-16","road_address":"경기 평택시 조개터로6번길 31-19","category":"카페","lat":36.988052214678,"lng":127.103219735975,"rating_avg":0.0,"phone":"031-618-1544","place_url":"http://place.map.kakao.com/15658346","place_id":15658346,"partyOn":0},{"seq":95,"name":"아그라 여의도점","address":"서울 영등포구 여의도동 23-10","road_address":"서울 영등포구 국제금융로2길 24","category":"음식점","lat":37.524293076846845,"lng":126.92483890460014,"rating_avg":0.0,"phone":"0507-1330-8079","place_url":"http://place.map.kakao.com/1518800242","place_id":1518800242,"partyOn":0},{"seq":100,"name":"까사14-2","address":"서울 종로구 명륜3가 14-2","road_address":"서울 종로구 성균관로 43","category":"카페","lat":37.5865668686659,"lng":126.996521867556,"rating_avg":0.0,"phone":"02-743-7800","place_url":"http://place.map.kakao.com/12777147","place_id":12777147,"partyOn":0},{"seq":101,"name":"Z","address":"제주특별자치도 제주시 이도2동 1186-19","road_address":"제주특별자치도 제주시 서광로32길 35-1","category":"음식점","lat":33.4976464368465,"lng":126.529778000495,"rating_avg":0.0,"phone":"064-724-4663","place_url":"http://place.map.kakao.com/18829425","place_id":18829425,"partyOn":0},{"seq":108,"name":"애드투F","address":"경기 양주시 장흥면 석현리 214","road_address":"경기 양주시 장흥면 권율로309번길 305-11","category":"카페","lat":37.7480680107827,"lng":126.946194399069,"rating_avg":0.0,"phone":"070-8973-9382","place_url":"http://place.map.kakao.com/21463030","place_id":21463030,"partyOn":0},{"seq":110,"name":"아그라 센터원점","address":"서울 중구 수하동 67","road_address":"서울 중구 을지로5길 26","category":"음식점","lat":37.5670720868948,"lng":126.985271594403,"rating_avg":0.0,"phone":"0507-1327-8977","place_url":"http://place.map.kakao.com/18763282","place_id":18763282,"partyOn":0},{"seq":111,"name":"F 이마트죽전점","address":"경기 용인시 수지구 죽전동 1282","road_address":"경기 용인시 수지구 포은대로 552","category":"음식점","lat":37.3253266411677,"lng":127.10993441585,"rating_avg":0.0,"place_url":"http://place.map.kakao.com/21476512","place_id":21476512,"partyOn":0},{"seq":114,"name":"쿠쿠아림","address":"제주특별자치도 제주시 아라일동 6050-3","road_address":"제주특별자치도 제주시 아란2길 38","category":"음식점","lat":33.4740434900743,"lng":126.540569160151,"rating_avg":0.0,"phone":"064-753-6645","place_url":"http://place.map.kakao.com/1533704204","place_id":1533704204,"partyOn":0},{"seq":116,"name":"카페아비앙또","address":"인천 계양구 서운동 207","road_address":"인천 계양구 봉오대로 855","category":"카페","lat":37.5318651333514,"lng":126.745438093138,"rating_avg":0.0,"phone":"010-9182-8581","place_url":"http://place.map.kakao.com/1828907298","place_id":1828907298,"partyOn":0},{"seq":117,"name":"계단집","address":"서울 중구 회현동1가 150-1","road_address":"서울 중구 퇴계로6길 35","category":"카페","lat":37.5569511876826,"lng":126.979248116,"rating_avg":0.0,"phone":"070-4419-7776","place_url":"http://place.map.kakao.com/380897959","place_id":380897959,"partyOn":0},{"seq":119,"name":"동부산컨트리클럽A","address":"경남 양산시 매곡동 산 102","road_address":"경남 양산시 매곡외산로 282","category":"음식점","lat":35.3630178736103,"lng":129.182538690551,"rating_avg":0.0,"phone":"055-388-1315","place_url":"http://place.map.kakao.com/21537801","place_id":21537801,"partyOn":0},{"seq":120,"name":"사이드쇼","address":"서울 강남구 삼성동 159-9","road_address":"서울 강남구 테헤란로87길 36","category":"음식점","lat":37.5101945567681,"lng":127.058574814799,"rating_avg":0.0,"place_url":"http://place.map.kakao.com/27315486","place_id":27315486,"partyOn":0},{"seq":121,"name":"A투Z","address":"서울 중구 신당동 302-4","road_address":"서울 중구 퇴계로76길 50","category":"카페","lat":37.5631689625771,"lng":127.014800075596,"rating_avg":0.0,"phone":"070-8242-8310","place_url":"http://place.map.kakao.com/11970739","place_id":11970739,"partyOn":0},{"seq":122,"name":"목란","address":"서울 서대문구 연희동 132-28","road_address":"서울 서대문구 연희로15길 21","category":"음식점","lat":37.5683644008351,"lng":126.930504091782,"rating_avg":0.0,"phone":"02-732-0054","place_url":"http://place.map.kakao.com/21359554","place_id":21359554,"partyOn":1},{"seq":123,"name":"무교동북어국집","address":"서울 중구 다동 173","road_address":"서울 중구 을지로1길 38","category":"음식점","lat":37.5677344200407,"lng":126.979856361347,"rating_avg":5.0,"phone":"02-777-3891","place_url":"http://place.map.kakao.com/11064200","place_id":11064200,"partyOn":1},{"seq":124,"name":"커피사마리아","address":"서울 중구 을지로3가 278","road_address":"서울 중구 을지로16길 5-1","category":"카페","lat":37.5661466183621,"lng":126.993788157846,"rating_avg":4.0,"phone":"02-2274-2780","place_url":"http://place.map.kakao.com/170158577","place_id":170158577,"partyOn":2},{"seq":125,"name":"풍년닭도리탕","address":"서울 중구 북창동 18-7","road_address":"서울 중구 세종대로14길 17-5","category":"음식점","lat":37.5630812898836,"lng":126.97770710108,"rating_avg":4.0,"phone":"02-755-5278","place_url":"http://place.map.kakao.com/13288545","place_id":13288545,"partyOn":1},{"seq":3,"name":"더앨리 명동점","address":"서울 중구 을지로2가 199-1","road_address":"서울 중구 명동3길 27","category":"카페","lat":37.56487881677838,"lng":126.98341801293302,"rating_avg":0.0,"phone":"02-3789-3449","place_url":"http://place.map.kakao.com/101528112","place_id":101528112,"partyOn":0},{"seq":13,"name":"한솥도시락 종로관철동점","address":"서울","road_address":"서울 종로구 종로12길 10","category":"음식점","lat":37.5696669984181,"lng":126.985628779238,"rating_avg":3.0,"phone":"02-725-3305","place_url":"http://place.map.kakao.com/2083593391","place_id":2083593391,"partyOn":0},{"seq":1,"name":"적당","address":"서울 중구 을지로1가 87","road_address":"서울 중구 을지로 29","category":"카페","lat":37.5664660151051,"lng":126.981047461974,"rating_avg":0.0,"place_url":"http://place.map.kakao.com/1345866783","place_id":1345866783,"partyOn":0},{"seq":2,"name":"남포면옥","address":"서울 중구 다동 121-4","road_address":"서울 중구 을지로3길 24","category":"음식점","lat":37.5671652991647,"lng":126.981753597164,"rating_avg":4.67,"phone":"02-777-3131","place_url":"http://place.map.kakao.com/21232315","place_id":21232315,"partyOn":0},{"seq":14,"name":"온천집","address":"서울","road_address":"서울 종로구 돈화문로11나길 31-8","category":"음식점","lat":37.574100328371,"lng":126.989798273552,"rating_avg":0.0,"place_url":"http://place.map.kakao.com/1803090740","place_id":1803090740,"partyOn":0},{"seq":22,"name":"이디야커피랩","address":"서울 강남구 논현동 221-17","road_address":"서울 강남구 논현로 636","category":"카페","lat":37.51047297481296,"lng":127.032981540064,"rating_avg":0.0,"phone":"undefined","place_url":"http://place.map.kakao.com/27579564","place_id":27579564,"partyOn":0},{"seq":23,"name":"스타벅스 더종로R점","address":"서울 종로구 공평동 70","road_address":"서울 종로구 종로 51","category":"카페","lat":37.57083628800682,"lng":126.98339892036326,"rating_avg":0.0,"phone":"1522-3232","place_url":"http://place.map.kakao.com/1784996243","place_id":1784996243,"partyOn":0},{"seq":24,"name":"엔제리너스 무교점","address":"서울 중구 무교동 12-1","road_address":"서울 중구 무교로 24","category":"카페","lat":37.5680514908201,"lng":126.979394450871,"rating_avg":3.93,"phone":"02-753-1769","place_url":"http://place.map.kakao.com/21329711","place_id":21329711,"partyOn":0},{"seq":31,"name":"카페글린공원 1호점","address":"경기 김포시 양촌읍 석모리 937","road_address":"경기 김포시 양촌읍 석모로5번길 34-1","category":"카페","lat":37.6500358417515,"lng":126.649378168357,"rating_avg":0.0,"phone":"031-996-5177","place_url":"http://place.map.kakao.com/329981360","place_id":329981360,"partyOn":0},{"seq":47,"name":"스타벅스 종로관철점","address":"서울 종로구 관철동 12-15","road_address":"서울 종로구 종로12길 21","category":"카페","lat":37.5690868019367,"lng":126.986000167007,"rating_avg":5.0,"phone":"1522-3232","place_url":"http://place.map.kakao.com/12700362","place_id":12700362,"partyOn":0},{"seq":102,"name":"아","address":"제주특별자치도 제주시 연동 1490-14","road_address":"제주특별자치도 제주시 국기중길 5","category":"카페","lat":33.4805011357045,"lng":126.491275666405,"rating_avg":0.0,"phone":"064-712-0760","place_url":"http://place.map.kakao.com/26992379","place_id":26992379,"partyOn":0},{"seq":105,"name":"1식당","address":"서울 마포구 합정동 433-60","road_address":"서울 마포구 포은로 52-1","category":"음식점","lat":37.5521770548473,"lng":126.906894093325,"rating_avg":0.0,"phone":"070-8246-1535","place_url":"http://place.map.kakao.com/1162209324","place_id":1162209324,"partyOn":0},{"seq":106,"name":"곤밥2","address":"제주특별자치도 제주시 일도1동 1259-1","road_address":"제주특별자치도 제주시 서부두남길 8","category":"음식점","lat":33.51497792169489,"lng":126.527695191021,"rating_avg":0.0,"phone":"064-759-2918","place_url":"http://place.map.kakao.com/2007313797","place_id":2007313797,"partyOn":0},{"seq":112,"name":"비원에프","address":"서울 용산구 한남동 111-4","road_address":"서울 용산구 독서당로 25","category":"카페","lat":37.5307156712588,"lng":127.007480551011,"rating_avg":0.0,"phone":"02-718-3909","place_url":"http://place.map.kakao.com/1082360145","place_id":1082360145,"partyOn":0},{"seq":126,"name":"맥주덕후X더랜치브루잉","address":"서울 중구 을지로3가 320","road_address":"서울 중구 을지로12길 11","category":"음식점","lat":37.5656491085916,"lng":126.99126182535,"rating_avg":4.0,"phone":"02-2272-2060","place_url":"http://place.map.kakao.com/1192120094","place_id":1192120094,"partyOn":2}]